{
"type": "FeatureCollection",
"crs": { "type": "name", "properties": { "name": "urn:ogc:def:crs:OGC:1.3:CRS84" } },
"features": [
{ "type": "Feature", "properties": { "county_han": "六县", "county_xin": "六县", "SOURCE": "CHGIS", "ID": 30901, "name_type": "不改" }, "geometry": { "type": "Point", "coordinates": [ 116.517601, 31.820169 ] } },
{ "type": "Feature", "properties": { "county_han": "蓼县", "county_xin": "蓼县", "SOURCE": "CHGIS", "ID": 30902, "name_type": "不改" }, "geometry": { "type": "Point", "coordinates": [ 115.75157, 32.37073 ] } },
{ "type": "Feature", "properties": { "county_han": "安丰县", "county_xin": "美丰县", "SOURCE": "CHGIS", "ID": 30903, "name_type": "半嘉名" }, "geometry": { "type": "Point", "coordinates": [ 115.80592, 32.02245 ] } },
{ "type": "Feature", "properties": { "county_han": "安风县", "county_xin": "安风亭县", "SOURCE": "CHGIS", "ID": 30904, "name_type": "亭" }, "geometry": { "type": "Point", "coordinates": [ 116.235276, 32.314176 ] } },
{ "type": "Feature", "properties": { "county_han": "阳泉县", "county_xin": "阳泉县", "SOURCE": "CHGIS", "ID": 30905, "name_type": "不改" }, "geometry": { "type": "Point", "coordinates": [ 115.88543, 32.479401 ] } },
{ "type": "Feature", "properties": { "county_han": "南昌县", "county_xin": "宜善县", "SOURCE": "CHGIS", "ID": 30801, "name_type": "嘉名" }, "geometry": { "type": "Point", "coordinates": [ 115.89772, 28.674896 ] } },
{ "type": "Feature", "properties": { "county_han": "庐陵县", "county_xin": "桓亭县", "SOURCE": "CHGIS", "ID": 30802, "name_type": "亭" }, "geometry": { "type": "Point", "coordinates": [ 114.832722, 26.937216 ] } },
{ "type": "Feature", "properties": { "county_han": "彭泽县", "county_xin": "彭泽县", "SOURCE": "CHGIS", "ID": 30803, "name_type": "不改" }, "geometry": { "type": "Point", "coordinates": [ 116.232186, 29.585 ] } },
{ "type": "Feature", "properties": { "county_han": "鄱阳县", "county_xin": "乡亭县", "SOURCE": "CHGIS", "ID": 30804, "name_type": "亭" }, "geometry": { "type": "Point", "coordinates": [ 116.860748, 29.087786 ] } },
{ "type": "Feature", "properties": { "county_han": "历陵县", "county_xin": "蒲亭县", "SOURCE": "CHGIS", "ID": 30805, "name_type": "亭" }, "geometry": { "type": "Point", "coordinates": [ 115.745026, 29.330564 ] } },
{ "type": "Feature", "properties": { "county_han": "馀汗县", "county_xin": "治干县", "SOURCE": "PUBLICATION", "ID": 30806, "name_type": "治" }, "geometry": { "type": "Point", "coordinates": [ 116.6647583, 28.7009344 ] } },
{ "type": "Feature", "properties": { "county_han": "柴桑县", "county_xin": "九江亭县", "SOURCE": "CHGIS", "ID": 30807, "name_type": "亭" }, "geometry": { "type": "Point", "coordinates": [ 115.943673, 29.641569 ] } },
{ "type": "Feature", "properties": { "county_han": "艾县", "county_xin": "治翰县", "SOURCE": "CHGIS", "ID": 30808, "name_type": "治" }, "geometry": { "type": "Point", "coordinates": [ 114.346738, 28.97108 ] } },
{ "type": "Feature", "properties": { "county_han": "赣县", "county_xin": "赣县", "SOURCE": "CHGIS", "ID": 30809, "name_type": "不改" }, "geometry": { "type": "Point", "coordinates": [ 114.882346, 25.835279 ] } },
{ "type": "Feature", "properties": { "county_han": "新淦县", "county_xin": "偶亭县", "SOURCE": "CHGIS", "ID": 30810, "name_type": "亭" }, "geometry": { "type": "Point", "coordinates": [ 115.539604, 28.064373 ] } },
{ "type": "Feature", "properties": { "county_han": "南城县", "county_xin": "南城县", "SOURCE": "CHGIS", "ID": 30811, "name_type": "不改" }, "geometry": { "type": "Point", "coordinates": [ 116.756582, 27.466871 ] } },
{ "type": "Feature", "properties": { "county_han": "建成县", "county_xin": "多聚县", "SOURCE": "CHGIS", "ID": 30812, "name_type": "聚" }, "geometry": { "type": "Point", "coordinates": [ 115.372276, 28.425598 ] } },
{ "type": "Feature", "properties": { "county_han": "宜春县", "county_xin": "修晓县", "SOURCE": "CHGIS", "ID": 30813, "name_type": "嘉名" }, "geometry": { "type": "Point", "coordinates": [ 114.375885, 27.794266 ] } },
{ "type": "Feature", "properties": { "county_han": "海昏县", "county_xin": "宜生县", "SOURCE": "CHGIS", "ID": 30814, "name_type": "嘉名" }, "geometry": { "type": "Point", "coordinates": [ 115.761818, 29.087832 ] } },
{ "type": "Feature", "properties": { "county_han": "雩都县", "county_xin": "雩都县", "SOURCE": "CHGIS", "ID": 30815, "name_type": "不改" }, "geometry": { "type": "Point", "coordinates": [ 115.429091, 25.963385 ] } },
{ "type": "Feature", "properties": { "county_han": "鄡阳县", "county_xin": "预章县", "SOURCE": "CHGIS", "ID": 30816, "name_type": "重地" }, "geometry": { "type": "Point", "coordinates": [ 116.367393, 29.135357 ] } },
{ "type": "Feature", "properties": { "county_han": "南野县", "county_xin": "南野县", "SOURCE": "CHGIS", "ID": 30817, "name_type": "不改" }, "geometry": { "type": "Point", "coordinates": [ 114.713272, 25.578068 ] } },
{ "type": "Feature", "properties": { "county_han": "安平侯国", "county_xin": "安宁县", "SOURCE": "CHGIS", "ID": 30818, "name_type": "改一" }, "geometry": { "type": "Point", "coordinates": [ 114.668976, 27.226717 ] } },
{ "type": "Feature", "properties": { "county_han": "宛陵县", "county_xin": "无宛县", "SOURCE": "CHGIS", "ID": 30701, "name_type": "?" }, "geometry": { "type": "Point", "coordinates": [ 118.7425, 30.946941 ] } },
{ "type": "Feature", "properties": { "county_han": "於朁县", "county_xin": "於朁县", "SOURCE": "CHGIS", "ID": 30702, "name_type": "不改" }, "geometry": { "type": "Point", "coordinates": [ 119.394783, 30.192015 ] } },
{ "type": "Feature", "properties": { "county_han": "江乘县", "county_xin": "相武县", "SOURCE": "CHGIS", "ID": 30703, "name_type": "嘉名" }, "geometry": { "type": "Point", "coordinates": [ 119.052199, 32.176555 ] } },
{ "type": "Feature", "properties": { "county_han": "春谷县", "county_xin": "春谷县", "SOURCE": "PUBLICATION", "ID": 30704, "name_type": "不改" }, "geometry": { "type": "Point", "coordinates": [ 118.0485153, 31.1877833 ] } },
{ "type": "Feature", "properties": { "county_han": "秣陵县", "county_xin": "宣亭县", "SOURCE": "CHGIS", "ID": 30705, "name_type": "亭" }, "geometry": { "type": "Point", "coordinates": [ 118.82727, 31.842648 ] } },
{ "type": "Feature", "properties": { "county_han": "故鄣县", "county_xin": "候望县", "SOURCE": "CHGIS", "ID": 30706, "name_type": "?" }, "geometry": { "type": "Point", "coordinates": [ 119.605081, 30.902421 ] } },
{ "type": "Feature", "properties": { "county_han": "句容县", "county_xin": "句容县", "SOURCE": "CHGIS", "ID": 30707, "name_type": "不改" }, "geometry": { "type": "Point", "coordinates": [ 119.162735, 31.946535 ] } },
{ "type": "Feature", "properties": { "county_han": "泾县", "county_xin": "泾县", "SOURCE": "CHGIS", "ID": 30708, "name_type": "不改" }, "geometry": { "type": "Point", "coordinates": [ 118.406586, 30.68671 ] } },
{ "type": "Feature", "properties": { "county_han": "丹阳县", "county_xin": "丹阳县", "SOURCE": "CHGIS", "ID": 30709, "name_type": "不改" }, "geometry": { "type": "Point", "coordinates": [ 118.71336, 31.656009 ] } },
{ "type": "Feature", "properties": { "county_han": "石城县", "county_xin": "石城县", "SOURCE": "CHGIS", "ID": 30710, "name_type": "不改" }, "geometry": { "type": "Point", "coordinates": [ 117.227623, 30.482548 ] } },
{ "type": "Feature", "properties": { "county_han": "胡孰县", "county_xin": "胡孰县", "SOURCE": "CHGIS", "ID": 30711, "name_type": "不改" }, "geometry": { "type": "Point", "coordinates": [ 118.979668, 31.859503 ] } },
{ "type": "Feature", "properties": { "county_han": "陵阳县", "county_xin": "陵阳县", "SOURCE": "CHGIS", "ID": 30712, "name_type": "不改" }, "geometry": { "type": "Point", "coordinates": [ 117.886765, 30.416302 ] } },
{ "type": "Feature", "properties": { "county_han": "芜湖县", "county_xin": "芜湖县", "SOURCE": "CHGIS", "ID": 30713, "name_type": "不改" }, "geometry": { "type": "Point", "coordinates": [ 118.425698, 31.346526 ] } },
{ "type": "Feature", "properties": { "county_han": "黝县", "county_xin": "愬虏县", "SOURCE": "CHGIS", "ID": 30714, "name_type": "意义" }, "geometry": { "type": "Point", "coordinates": [ 117.939329, 29.922756 ] } },
{ "type": "Feature", "properties": { "county_han": "溧阳县", "county_xin": "溧阳县", "SOURCE": "CHGIS", "ID": 30715, "name_type": "不改" }, "geometry": { "type": "Point", "coordinates": [ 119.31224, 31.48672 ] } },
{ "type": "Feature", "properties": { "county_han": "歙县", "county_xin": "歙县", "SOURCE": "CHGIS", "ID": 30716, "name_type": "不改" }, "geometry": { "type": "Point", "coordinates": [ 118.433945, 29.86577 ] } },
{ "type": "Feature", "properties": { "county_han": "宣城县", "county_xin": "宣城县", "SOURCE": "CHGIS", "ID": 30717, "name_type": "不改" }, "geometry": { "type": "Point", "coordinates": [ 118.48513, 30.9123 ] } },
{ "type": "Feature", "properties": { "county_han": "吴县", "county_xin": "泰德县", "SOURCE": "CHGIS", "ID": 30601, "name_type": "嘉名" }, "geometry": { "type": "Point", "coordinates": [ 120.618622, 31.31271 ] } },
{ "type": "Feature", "properties": { "county_han": "曲阿县", "county_xin": "风美县", "SOURCE": "CHGIS", "ID": 30602, "name_type": "嘉名" }, "geometry": { "type": "Point", "coordinates": [ 119.569855, 31.995802 ] } },
{ "type": "Feature", "properties": { "county_han": "乌伤县", "county_xin": "乌孝县", "SOURCE": "CHGIS", "ID": 30603, "name_type": "半嘉名" }, "geometry": { "type": "Point", "coordinates": [ 120.071625, 29.300087 ] } },
{ "type": "Feature", "properties": { "county_han": "毗陵县", "county_xin": "毗坛县", "SOURCE": "CHGIS", "ID": 30604, "name_type": "改一" }, "geometry": { "type": "Point", "coordinates": [ 119.952301, 31.782784 ] } },
{ "type": "Feature", "properties": { "county_han": "馀暨县", "county_xin": "馀衍县", "SOURCE": "PUBLICATION", "ID": 30605, "name_type": "改一" }, "geometry": { "type": "Point", "coordinates": [ 120.2440993, 30.1976063 ] } },
{ "type": "Feature", "properties": { "county_han": "阳羡县", "county_xin": "阳羡县", "SOURCE": "CHGIS", "ID": 30606, "name_type": "不改" }, "geometry": { "type": "Point", "coordinates": [ 119.815624, 31.353706 ] } },
{ "type": "Feature", "properties": { "county_han": "诸暨县", "county_xin": "疏虏县", "SOURCE": "CHGIS", "ID": 30607, "name_type": "意义" }, "geometry": { "type": "Point", "coordinates": [ 120.227661, 29.713137 ] } },
{ "type": "Feature", "properties": { "county_han": "无锡县", "county_xin": "有锡县", "SOURCE": "CHGIS", "ID": 30608, "name_type": "反" }, "geometry": { "type": "Point", "coordinates": [ 120.297668, 31.574614 ] } },
{ "type": "Feature", "properties": { "county_han": "山阴县", "county_xin": "山阴县", "SOURCE": "CHGIS", "ID": 30609, "name_type": "不改" }, "geometry": { "type": "Point", "coordinates": [ 120.578262, 30.004515 ] } },
{ "type": "Feature", "properties": { "county_han": "丹徒县", "county_xin": "丹徒县", "SOURCE": "CHGIS", "ID": 30610, "name_type": "不改" }, "geometry": { "type": "Point", "coordinates": [ 119.514992, 32.19529 ] } },
{ "type": "Feature", "properties": { "county_han": "馀姚县", "county_xin": "馀姚县", "SOURCE": "PUBLICATION", "ID": 30611, "name_type": "不改" }, "geometry": { "type": "Point", "coordinates": [ 121.1345883, 30.0344684 ] } },
{ "type": "Feature", "properties": { "county_han": "娄县", "county_xin": "娄治县", "SOURCE": "CHGIS", "ID": 30612, "name_type": "治" }, "geometry": { "type": "Point", "coordinates": [ 120.953649, 31.394462 ] } },
{ "type": "Feature", "properties": { "county_han": "上虞县", "county_xin": "会稽县", "SOURCE": "CHGIS", "ID": 30613, "name_type": "重地" }, "geometry": { "type": "Point", "coordinates": [ 120.876747, 30.017284 ] } },
{ "type": "Feature", "properties": { "county_han": "海盐县", "county_xin": "展武县", "SOURCE": "CHGIS", "ID": 30614, "name_type": "?" }, "geometry": { "type": "Point", "coordinates": [ 121.012344, 30.70422 ] } },
{ "type": "Feature", "properties": { "county_han": "剡县", "county_xin": "尽忠县", "SOURCE": "CHGIS", "ID": 30615, "name_type": "嘉名" }, "geometry": { "type": "Point", "coordinates": [ 120.742558, 29.54631 ] } },
{ "type": "Feature", "properties": { "county_han": "由拳县", "county_xin": "由拳县", "SOURCE": "CHGIS", "ID": 30616, "name_type": "不改" }, "geometry": { "type": "Point", "coordinates": [ 120.753126, 30.745343 ] } },
{ "type": "Feature", "properties": { "county_han": "大末县", "county_xin": "末治县", "SOURCE": "PUBLICATION", "ID": 30617, "name_type": "治" }, "geometry": { "type": "Point", "coordinates": [ 119.1474773, 29.0250624 ] } },
{ "type": "Feature", "properties": { "county_han": "乌程县", "county_xin": "乌程县", "SOURCE": "CHGIS", "ID": 30618, "name_type": "不改" }, "geometry": { "type": "Point", "coordinates": [ 120.109195, 30.796995 ] } },
{ "type": "Feature", "properties": { "county_han": "句章县", "county_xin": "句章县", "SOURCE": "CHGIS", "ID": 30619, "name_type": "不改" }, "geometry": { "type": "Point", "coordinates": [ 121.512394, 29.874407 ] } },
{ "type": "Feature", "properties": { "county_han": "馀杭县", "county_xin": "进睦县", "SOURCE": "PUBLICATION", "ID": 30620, "name_type": "嘉名" }, "geometry": { "type": "Point", "coordinates": [ 119.9231233, 30.2693904 ] } },
{ "type": "Feature", "properties": { "county_han": "鄞县", "county_xin": "谨县", "SOURCE": "CHGIS", "ID": 30621, "name_type": "嘉名" }, "geometry": { "type": "Point", "coordinates": [ 121.552942, 29.689518 ] } },
{ "type": "Feature", "properties": { "county_han": "钱唐县", "county_xin": "泉亭县", "SOURCE": "CHGIS", "ID": 30622, "name_type": "亭" }, "geometry": { "type": "Point", "coordinates": [ 120.168625, 30.294125 ] } },
{ "type": "Feature", "properties": { "county_han": "鄮县", "county_xin": "海治县", "SOURCE": "CHGIS", "ID": 30623, "name_type": "治" }, "geometry": { "type": "Point", "coordinates": [ 121.727013, 29.844328 ] } },
{ "type": "Feature", "properties": { "county_han": "富春县", "county_xin": "诛岁县", "SOURCE": "CHGIS", "ID": 30624, "name_type": "意义" }, "geometry": { "type": "Point", "coordinates": [ 119.947754, 30.053434 ] } },
{ "type": "Feature", "properties": { "county_han": "冶县", "county_xin": "冶县", "SOURCE": "CHGIS", "ID": 30625, "name_type": "不改" }, "geometry": { "type": "Point", "coordinates": [ 119.321577, 26.073954 ] } },
{ "type": "Feature", "properties": { "county_han": "回浦县", "county_xin": "回浦县", "SOURCE": "CHGIS", "ID": 30626, "name_type": "不改" }, "geometry": { "type": "Point", "coordinates": [ 121.418793, 28.713875 ] } },
{ "type": "Feature", "properties": { "county_han": "寿春邑", "county_xin": "寿春邑", "SOURCE": "PUBLICATION", "ID": 30501, "name_type": "不改" }, "geometry": { "type": "Point", "coordinates": [ 116.7615983, 32.5808393 ] } },
{ "type": "Feature", "properties": { "county_han": "浚遒县", "county_xin": "浚遒县", "SOURCE": "PUBLICATION", "ID": 30502, "name_type": "不改" }, "geometry": { "type": "Point", "coordinates": [ 117.5011623, 31.8916983 ] } },
{ "type": "Feature", "properties": { "county_han": "成德县", "county_xin": "平阿县", "SOURCE": "CHGIS", "ID": 30503, "name_type": "?" }, "geometry": { "type": "Point", "coordinates": [ 116.863457, 32.249771 ] } },
{ "type": "Feature", "properties": { "county_han": "橐皋县", "county_xin": "橐皋县", "SOURCE": "CHGIS", "ID": 30504, "name_type": "不改" }, "geometry": { "type": "Point", "coordinates": [ 117.827042, 31.712723 ] } },
{ "type": "Feature", "properties": { "county_han": "阴陵县", "county_xin": "阴陆县", "SOURCE": "CHGIS", "ID": 30505, "name_type": "陵" }, "geometry": { "type": "Point", "coordinates": [ 117.443821, 32.636183 ] } },
{ "type": "Feature", "properties": { "county_han": "历阳县", "county_xin": "明义县", "SOURCE": "CHGIS", "ID": 30506, "name_type": "嘉名" }, "geometry": { "type": "Point", "coordinates": [ 118.361122, 31.714224 ] } },
{ "type": "Feature", "properties": { "county_han": "当涂侯国", "county_xin": "山聚县", "SOURCE": "CHGIS", "ID": 30507, "name_type": "聚" }, "geometry": { "type": "Point", "coordinates": [ 117.205002, 32.864658 ] } },
{ "type": "Feature", "properties": { "county_han": "钟离县", "county_xin": "蚕富县", "SOURCE": "CHGIS", "ID": 30508, "name_type": "嘉名" }, "geometry": { "type": "Point", "coordinates": [ 117.640221, 32.901634 ] } },
{ "type": "Feature", "properties": { "county_han": "合肥县", "county_xin": "合肥县", "SOURCE": "CHGIS", "ID": 30509, "name_type": "不改" }, "geometry": { "type": "Point", "coordinates": [ 117.276459, 31.864456 ] } },
{ "type": "Feature", "properties": { "county_han": "东城县", "county_xin": "武城县", "SOURCE": "CHGIS", "ID": 30510, "name_type": "城" }, "geometry": { "type": "Point", "coordinates": [ 117.831304, 32.41875 ] } },
{ "type": "Feature", "properties": { "county_han": "博乡侯国", "county_xin": "扬陆县", "SOURCE": "CHGIS", "ID": 30511, "name_type": "全改" }, "geometry": { "type": "Point", "coordinates": [ 116.309551, 31.748544 ] } },
{ "type": "Feature", "properties": { "county_han": "曲阳侯国", "county_xin": "延平亭县", "SOURCE": "CHGIS", "ID": 30512, "name_type": "亭" }, "geometry": { "type": "Point", "coordinates": [ 117.162908, 32.619987 ] } },
{ "type": "Feature", "properties": { "county_han": "建阳县", "county_xin": "建阳县", "SOURCE": "PUBLICATION", "ID": 30513, "name_type": "不改" }, "geometry": { "type": "Point", "coordinates": [ 118.4156653, 32.3606683 ] } },
{ "type": "Feature", "properties": { "county_han": "全椒县", "county_xin": "全椒县", "SOURCE": "CHGIS", "ID": 30514, "name_type": "不改" }, "geometry": { "type": "Point", "coordinates": [ 118.264374, 32.098347 ] } },
{ "type": "Feature", "properties": { "county_han": "阜陵县", "county_xin": "阜陆县", "SOURCE": "CHGIS", "ID": 30515, "name_type": "陵" }, "geometry": { "type": "Point", "coordinates": [ 118.185474, 31.681208 ] } },
{ "type": "Feature", "properties": { "county_han": "舒县", "county_xin": "昆乡县", "SOURCE": "CHGIS", "ID": 30401, "name_type": "乡" }, "geometry": { "type": "Point", "coordinates": [ 117.174368, 31.188974 ] } },
{ "type": "Feature", "properties": { "county_han": "居巢县", "county_xin": "居巢县", "SOURCE": "CHGIS", "ID": 30402, "name_type": "不改" }, "geometry": { "type": "Point", "coordinates": [ 117.012504, 30.854535 ] } },
{ "type": "Feature", "properties": { "county_han": "龙舒县", "county_xin": "龙舒县", "SOURCE": "CHGIS", "ID": 30403, "name_type": "不改" }, "geometry": { "type": "Point", "coordinates": [ 116.626083, 31.341389 ] } },
{ "type": "Feature", "properties": { "county_han": "临湖县", "county_xin": "临湖县", "SOURCE": "CHGIS", "ID": 30404, "name_type": "不改" }, "geometry": { "type": "Point", "coordinates": [ 117.696298, 31.145337 ] } },
{ "type": "Feature", "properties": { "county_han": "雩娄县", "county_xin": "雩娄县", "SOURCE": "CHGIS", "ID": 30405, "name_type": "不改" }, "geometry": { "type": "Point", "coordinates": [ 115.87859, 31.85905 ] } },
{ "type": "Feature", "properties": { "county_han": "襄安县", "county_xin": "庐江亭县", "SOURCE": "CHGIS", "ID": 30406, "name_type": "亭" }, "geometry": { "type": "Point", "coordinates": [ 117.79866, 31.157307 ] } },
{ "type": "Feature", "properties": { "county_han": "枞阳县", "county_xin": "枞阳县", "SOURCE": "CHGIS", "ID": 30407, "name_type": "不改" }, "geometry": { "type": "Point", "coordinates": [ 117.210587, 30.69371 ] } },
{ "type": "Feature", "properties": { "county_han": "寻阳县", "county_xin": "寻阳县", "SOURCE": "CHGIS", "ID": 30408, "name_type": "不改" }, "geometry": { "type": "Point", "coordinates": [ 115.69746, 29.90916 ] } },
{ "type": "Feature", "properties": { "county_han": "灊县", "county_xin": "灊县", "SOURCE": "CHGIS", "ID": 30409, "name_type": "不改" }, "geometry": { "type": "Point", "coordinates": [ 116.355393, 31.535159 ] } },
{ "type": "Feature", "properties": { "county_han": "皖县", "county_xin": "皖县", "SOURCE": "CHGIS", "ID": 30410, "name_type": "不改" }, "geometry": { "type": "Point", "coordinates": [ 116.5672, 30.630346 ] } },
{ "type": "Feature", "properties": { "county_han": "湖陵邑", "county_xin": "湖陵邑县", "SOURCE": "CHGIS", "ID": 30411, "name_type": "不改" }, "geometry": { "type": "Point", "coordinates": [ 116.438118, 30.215326 ] } },
{ "type": "Feature", "properties": { "county_han": "松兹侯国", "county_xin": "诵善县", "SOURCE": "CHGIS", "ID": 30412, "name_type": "嘉名" }, "geometry": { "type": "Point", "coordinates": [ 116.172883, 30.359722 ] } },
{ "type": "Feature", "properties": { "county_han": "广陵县", "county_xin": "安定县", "SOURCE": "CHGIS", "ID": 30301, "name_type": "意义" }, "geometry": { "type": "Point", "coordinates": [ 119.437187, 32.39127 ] } },
{ "type": "Feature", "properties": { "county_han": "江都县", "county_xin": "江都县", "SOURCE": "CHGIS", "ID": 30302, "name_type": "不改" }, "geometry": { "type": "Point", "coordinates": [ 119.449408, 32.271192 ] } },
{ "type": "Feature", "properties": { "county_han": "高邮县", "county_xin": "高邮县", "SOURCE": "CHGIS", "ID": 30303, "name_type": "不改" }, "geometry": { "type": "Point", "coordinates": [ 119.437332, 32.79071 ] } },
{ "type": "Feature", "properties": { "county_han": "平安县", "county_xin": "杜乡县", "SOURCE": "CHGIS", "ID": 30304, "name_type": "乡" }, "geometry": { "type": "Point", "coordinates": [ 119.29573, 33.146187 ] } },
{ "type": "Feature", "properties": { "county_han": "凌县", "county_xin": "生夌县", "SOURCE": "PUBLICATION", "ID": 30201, "name_type": "加一" }, "geometry": { "type": "Point", "coordinates": [ 118.6419393, 33.7272393 ] } },
{ "type": "Feature", "properties": { "county_han": "泗阳县", "county_xin": "淮平亭县", "SOURCE": "CHGIS", "ID": 30202, "name_type": "亭" }, "geometry": { "type": "Point", "coordinates": [ 118.933586, 33.531315 ] } },
{ "type": "Feature", "properties": { "county_han": "徐县", "county_xin": "徐调县", "SOURCE": "CHGIS", "ID": 30101, "name_type": "加一" }, "geometry": { "type": "Point", "coordinates": [ 118.243224, 33.297223 ] } },
{ "type": "Feature", "properties": { "county_han": "取虑县", "county_xin": "取虑县", "SOURCE": "CHGIS", "ID": 30102, "name_type": "不改" }, "geometry": { "type": "Point", "coordinates": [ 117.754091, 33.844389 ] } },
{ "type": "Feature", "properties": { "county_han": "淮浦县", "county_xin": "淮敬县", "SOURCE": "CHGIS", "ID": 30103, "name_type": "改一" }, "geometry": { "type": "Point", "coordinates": [ 119.261231, 33.766373 ] } },
{ "type": "Feature", "properties": { "county_han": "盱眙县", "county_xin": "武匡县", "SOURCE": "CHGIS", "ID": 30104, "name_type": "嘉名" }, "geometry": { "type": "Point", "coordinates": [ 118.560493, 33.096321 ] } },
{ "type": "Feature", "properties": { "county_han": "厹犹县", "county_xin": "秉义县", "SOURCE": "PUBLICATION", "ID": 30105, "name_type": "嘉名" }, "geometry": { "type": "Point", "coordinates": [ 118.3373373, 33.8252093 ] } },
{ "type": "Feature", "properties": { "county_han": "僮县", "county_xin": "成信县", "SOURCE": "CHGIS", "ID": 30106, "name_type": "嘉名" }, "geometry": { "type": "Point", "coordinates": [ 118.076342, 33.719882 ] } },
{ "type": "Feature", "properties": { "county_han": "射阳县", "county_xin": "监淮亭县", "SOURCE": "CHGIS", "ID": 30107, "name_type": "亭" }, "geometry": { "type": "Point", "coordinates": [ 119.616165, 33.305 ] } },
{ "type": "Feature", "properties": { "county_han": "赘其县", "county_xin": "赘其县", "SOURCE": "PUBLICATION", "ID": 30109, "name_type": "不改" }, "geometry": { "type": "Point", "coordinates": [ 118.4555793, 32.9495663 ] } },
{ "type": "Feature", "properties": { "county_han": "高山县", "county_xin": "高山县", "SOURCE": "PUBLICATION", "ID": 30110, "name_type": "不改" }, "geometry": { "type": "Point", "coordinates": [ 118.4935953, 32.9454853 ] } },
{ "type": "Feature", "properties": { "county_han": "睢陵县", "county_xin": "睢陆县", "SOURCE": "CHGIS", "ID": 30111, "name_type": "改一" }, "geometry": { "type": "Point", "coordinates": [ 118.417126, 33.28902 ] } },
{ "type": "Feature", "properties": { "county_han": "盐渎县", "county_xin": "盐渎县", "SOURCE": "CHGIS", "ID": 30112, "name_type": "不改" }, "geometry": { "type": "Point", "coordinates": [ 120.13372, 33.385162 ] } },
{ "type": "Feature", "properties": { "county_han": "淮阴县", "county_xin": "嘉信县", "SOURCE": "CHGIS", "ID": 30113, "name_type": "嘉名" }, "geometry": { "type": "Point", "coordinates": [ 118.933586, 33.531315 ] } },
{ "type": "Feature", "properties": { "county_han": "淮陵县", "county_xin": "淮陆县", "SOURCE": "CHGIS", "ID": 30114, "name_type": "改一" }, "geometry": { "type": "Point", "coordinates": [ 118.170046, 33.015539 ] } },
{ "type": "Feature", "properties": { "county_han": "下相县", "county_xin": "从德县", "SOURCE": "CHGIS", "ID": 30115, "name_type": "嘉名" }, "geometry": { "type": "Point", "coordinates": [ 118.283118, 33.942922 ] } },
{ "type": "Feature", "properties": { "county_han": "富陵县", "county_xin": "𣝇虏县", "SOURCE": "CHGIS", "ID": 30116, "name_type": "?" }, "geometry": { "type": "Point", "coordinates": [ 118.798434, 33.380634 ] } },
{ "type": "Feature", "properties": { "county_han": "东阳县", "county_xin": "东阳县", "SOURCE": "CHGIS", "ID": 30117, "name_type": "不改" }, "geometry": { "type": "Point", "coordinates": [ 118.83847, 32.961845 ] } },
{ "type": "Feature", "properties": { "county_han": "高平侯国", "county_xin": "成丘县", "SOURCE": "CHGIS", "ID": 30120, "name_type": "?" }, "geometry": { "type": "Point", "coordinates": [ 118.287845, 33.310593 ] } },
{ "type": "Feature", "properties": { "county_han": "海陵县", "county_xin": "亭间县", "SOURCE": "CHGIS", "ID": 30126, "name_type": "?" }, "geometry": { "type": "Point", "coordinates": [ 119.91124, 32.495872 ] } },
{ "type": "Feature", "properties": { "county_han": "舆县", "county_xin": "美德县", "SOURCE": "CHGIS", "ID": 30127, "name_type": "嘉名" }, "geometry": { "type": "Point", "coordinates": [ 119.232903, 32.346744 ] } },
{ "type": "Feature", "properties": { "county_han": "堂邑", "county_xin": "堂邑", "SOURCE": "CHGIS", "ID": 30128, "name_type": "不改" }, "geometry": { "type": "Point", "coordinates": [ 118.782138, 32.41687 ] } }
]
}
